[
    {
        "country": "Sri Lanka",
        "city": "Colombo",
        "latitude": 6.9271,
        "longitude": 79.8612,
        "storeName": "LUXNEWYORK Mall Colombo"
    },
    {
        "country": "UAE",
        "city": "Dubai",
        "latitude": 25.276987,
        "longitude": 55.296249,
        "storeName": "LUXNEWYORK Mall Dubai"
    },
    {
        "country": "India",
        "city": "Mumbai",
        "latitude": 19.0760,
        "longitude": 72.8777,
        "storeName": "LUXNEWYORK Mall Mumbai"
    },
    {
    "country": "USA",
    "city": "New York",
    "latitude": 40.7128,
    "longitude": -74.0060,
    "storeName": "LUXNEWYORK Mall New York"
    },
    {
    "country": "Canada",
    "city": "Toronto",
    "latitude": 43.651070,
    "longitude": -79.347015,
    "storeName": "LUXNEWYORK Mall Toronto"
    },
    {
    "country": "UK",
    "city": "London",
    "latitude": 51.5074,
    "longitude": -0.1278,
    "storeName": "LUXNEWYORK Mall London"
    },
    {
    "country": "Australia",
    "city": "Sydney",
    "latitude": -33.8688,
    "longitude": 151.2093,
    "storeName": "LUXNEWYORK Mall Sydney"
    },
    {
    "country": "Japan",
    "city": "Tokyo",
    "latitude": 35.6762,
    "longitude": 139.6503,
    "storeName": "LUXNEWYORK Mall Tokyo"
    },
    {
    "country": "Germany",
    "city": "Berlin",
    "latitude": 52.5200,
    "longitude": 13.4050,
    "storeName": "LUXNEWYORK Mall Berlin"
    },
    {
    "country": "France",
    "city": "Paris",
    "latitude": 48.8566,
    "longitude": 2.3522,
    "storeName": "LUXNEWYORK Mall Paris"
    },
    {
    "country": "Italy",
    "city": "Rome",
    "latitude": 41.9028,
    "longitude": 12.4964,
    "storeName": "LUXNEWYORK Mall Rome"
    },
    {
    "country": "Spain",
    "city": "Madrid",
    "latitude": 40.4168,
    "longitude": -3.7038,
    "storeName": "LUXNEWYORK Mall Madrid"
    },
    {
    "country": "Brazil",
    "city": "São Paulo",
    "latitude": -23.5505,
    "longitude": -46.6333,
    "storeName": "LUXNEWYORK Mall São Paulo"
    },
    {
    "country": "Mexico",
    "city": "Mexico City",
    "latitude": 19.4326,
    "longitude": -99.1332,
    "storeName": "LUXNEWYORK Mall Mexico City"
    },
    {
    "country": "South Africa",
    "city": "Cape Town",
    "latitude": -33.9249,
    "longitude": 18.4241,
    "storeName": "LUXNEWYORK Mall Cape Town"
    },
    {
    "country": "Russia",
    "city": "Moscow",
    "latitude": 55.7558,
    "longitude": 37.6173,
    "storeName": "LUXNEWYORK Mall Moscow"
    },
    {
    "country": "China",
    "city": "Beijing",
    "latitude": 39.9042,
    "longitude": 116.4074,
    "storeName": "LUXNEWYORK Mall Beijing"
    },
    {
    "country": "South Korea",
    "city": "Seoul",
    "latitude": 37.5665,
    "longitude": 126.9780,
    "storeName": "LUXNEWYORK Mall Seoul"
    },
    {
    "country": "Singapore",
    "city": "Singapore",
    "latitude": 1.3521,
    "longitude": 103.8198,
    "storeName": "LUXNEWYORK Mall Singapore"
    },
    {
    "country": "Thailand",
    "city": "Bangkok",
    "latitude": 13.7563,
    "longitude": 100.5018,
    "storeName": "LUXNEWYORK Mall Bangkok"
    },
    {
    "country": "Indonesia",
    "city": "Jakarta",
    "latitude": -6.2088,
    "longitude": 106.8456,
    "storeName": "LUXNEWYORK Mall Jakarta"
    },
    {
    "country": "Malaysia",
    "city": "Kuala Lumpur",
    "latitude": 3.139,"longitude": 101.6869,
    "storeName": "LUXNEWYORK Mall Kuala Lumpur"
    },
    {
    "country": "Philippines",
    "city": "Manila",
    "latitude": 14.5995,
    "longitude": 120.9842,
    "storeName": "LUXNEWYORK Mall Manila"
    },
    {
    "country": "Vietnam",
    "city": "Hanoi",
    "latitude": 21.0285,
    "longitude": 105.8542,
    "storeName": "LUXNEWYORK Mall Hanoi"
    },
    {
    "country": "Turkey",
    "city": "Istanbul",
    "latitude": 41.0082,
    "longitude": 28.9784,
    "storeName": "LUXNEWYORK Mall Istanbul"
    },
    {
    "country": "Egypt",
    "city": "Cairo",
    "latitude": 30.0444,
    "longitude": 31.2357,
    "storeName": "LUXNEWYORK Mall Cairo"
    },
    {
    "country": "Argentina",
    "city": "Buenos Aires",
    "latitude": -34.6037,
    "longitude": -58.3816,
    "storeName": "LUXNEWYORK Mall Buenos Aires"
    },
    {
    "country": "Chile",
    "city": "Santiago",
    "latitude": -33.4489,
    "longitude": -70.6693,
    "storeName": "LUXNEWYORK Mall Santiago"
    },
    {
    "country": "Colombia",
    "city": "Bogotá",
    "latitude": 4.7110,
    "longitude": -74.0721,
    "storeName": "LUXNEWYORK Mall Bogotá"
    }, 
    {
    "country": "Peru",
    "city": "Lima",
    "latitude": -12.0464,
    "longitude": -77.0428,
    "storeName": "LUXNEWYORK Mall Lima"
    },
    {
    "country": "Uruguay",
    "city": "Montevideo",
    "latitude": -34.9011,
    "longitude": -56.1645,
    "storeName": "LUXNEWYORK Mall Montevideo"
    },
    {
    "country": "Poland",
    "city": "Warsaw",
    "latitude": 52.2297,
    "longitude": 21.0122,
    "storeName": "LUXNEWYORK Mall Warsaw"
    },
    {
    "country": "Netherlands",
    "city": "Amsterdam",
    "latitude": 52.3676,
    "longitude": 4.9041,
    "storeName": "LUXNEWYORK Mall Amsterdam"
    },
    {
    "country": "Belgium",
    "city": "Brussels",
    "latitude": 50.8503,
    "longitude": 4.3517,
    "storeName": "LUXNEWYORK Mall Brussels"
    },
    {
    "country": "Sweden",
    "city": "Stockholm",
    "latitude": 59.3293,
    "longitude": 18.0686,
    "storeName": "LUXNEWYORK Mall Stockholm"
    },
    {
    "country": "Finland",
    "city": "Helsinki",
    "latitude": 60.1695,
    "longitude": 24.9354,
    "storeName": "LUXNEWYORK Mall Helsinki"
    },
    {
    "country": "Norway",
    "city": "Oslo",
    "latitude": 59.9139,
    "longitude": 10.7522,
    "storeName": "LUXNEWYORK Mall Oslo"
    },
    {
    "country": "Denmark",
    "city": "Copenhagen",
    "latitude": 55.6761,
    "longitude": 12.5683,
    "storeName": "LUXNEWYORK Mall Copenhagen"
    },
    {
    "country": "Switzerland",
    "city": "Zurich",
    "latitude": 47.3769,
    "longitude": 8.5417,
    "storeName": "LUXNEWYORK Mall Zurich"
    },
    {
    "country": "Austria",
    "city": "Vienna",
    "latitude": 48.2082,
    "longitude": 16.3738,
    "storeName": "LUXNEWYORK Mall Vienna"
    },
    {
    "country": "Greece",
    "city": "Athens",
    "latitude": 37.9838,
    "longitude": 23.7275,
    "storeName": "LUXNEWYORK Mall Athens"
    },
    {
    "country": "Portugal",
    "city": "Lisbon",
    "latitude": 38.7223,
    "longitude": -9.1393,
    "storeName": "LUXNEWYORK Mall Lisbon"
    },
    {
    "country": "Ireland",
    "city": "Dublin",
    "latitude": 53.3498,
    "longitude": -6.2603,
    "storeName": "LUXNEWYORK Mall Dublin"
    },
    {
    "country": "Czech Republic",
    "city": "Prague",
    "latitude": 50.0755,
    "longitude": 14.4378,
    "storeName": "LUXNEWYORK Mall Prague"
    },
    {
    "country": "Hungary",
    "city": "Budapest",
    "latitude": 47.4979,
    "longitude": 19.0402,
    "storeName": "LUXNEWYORK Mall Budapest"
    },
    {
    "country": "Croatia",
    "city": "Zagreb",
    "latitude": 45.8150,
    "longitude": 15.9819,
    "storeName": "LUXNEWYORK Mall Zagreb"
    },
    {
    "country": "Slovakia",
    "city": "Bratislava",
    "latitude": 48.1482,
    "longitude": 17.1067,
    "storeName": "LUXNEWYORK Mall Bratislava"
    },
    {
    "country": "Bulgaria",
    "city": "Sofia",
    "latitude": 42.6977,
    "longitude": 23.3219,
    "storeName": "LUXNEWYORK Mall Sofia"
    },
    {
    "country": "Romania",
    "city": "Bucharest",
    "latitude": 44.4268,
    "longitude": 26.1025,
    "storeName": "LUXNEWYORK Mall Bucharest"
    },
    {
    "country": "Serbia",
    "city": "Belgrade",
    "latitude": 44.7866,
    "longitude": 20.4489,
    "storeName": "LUXNEWYORK Mall Belgrade"
    },
    {
    "country": "Ukraine",
    "city": "Kyiv",
    "latitude": 50.4501,
    "longitude": 30.5234,
    "storeName": "LUXNEWYORK Mall Kyiv"
    }
]

